{
  "name": "Bastille plus 22 imported Marly places",
  "start": {
    "lat": 48.853,
    "lon": 2.369,
    "name": "Place de la Bastille"
  },
  "route_topology": "loop",
  "target_distance_m": 45000,
  "tolerance_m": 2000,
  "candidate_count": 3,
  "seed": 0,
  "distance_priority": "flexible",
  "direction_preference": "any",
  "scenic_preference": "prefer",
  "drinking_water_preference": "prefer",
  "nature_preference": "prefer",
  "path_selection_mode": "low_overlap",
  "loop_geometry_preference": "off",
  "profile": "hike",
  "points": [
    {"lat": 48.871500, "lon": 2.043000, "name": "Croix Saint-Michel"},
    {"lat": 48.887496, "lon": 2.034384, "name": "Abbaye de Joyenval"},
    {"lat": 48.890810, "lon": 2.021530, "name": "Entrée du Désert de Retz"},
    {"lat": 48.889861, "lon": 2.044635, "name": "Étoile de Montaigu"},
    {"lat": 48.884800, "lon": 2.040200, "name": "Étoile des Chasseurs"},
    {"lat": 48.856200, "lon": 2.083000, "name": "Étoile du Compas"},
    {"lat": 48.851200, "lon": 2.091500, "name": "Lisière du Trou d'Enfer — rester hors domaine"},
    {"lat": 48.864000, "lon": 2.074000, "name": "Étoile Douteuse"},
    {"lat": 48.861000, "lon": 2.071000, "name": "Batterie de l'Auberderie"},
    {"lat": 48.871389, "lon": 2.096667, "name": "Gare de Marly-le-Roi"},
    {"lat": 48.866700, "lon": 2.095400, "name": "Église Saint-Vigor / Vieux Marly"},
    {"lat": 48.862484, "lon": 2.099204, "name": "Abreuvoir de Marly"},
    {"lat": 48.863976, "lon": 2.103777, "name": "Grille du Cœur-Volant"},
    {"lat": 48.871454, "lon": 2.124421, "name": "Machine de Marly"},
    {"lat": 48.864400, "lon": 2.113500, "name": "Tour du Levant"},
    {"lat": 48.861560, "lon": 2.108330, "name": "Aqueduc de Louveciennes — milieu"},
    {"lat": 48.858700, "lon": 2.104000, "name": "Tour du Jongleur"},
    {"lat": 48.854245, "lon": 2.107372, "name": "Entrée sud du Domaine"},
    {"lat": 48.858800, "lon": 2.101700, "name": "Grand Miroir"},
    {"lat": 48.862849, "lon": 2.099448, "name": "Emplacement du château de Marly"},
    {"lat": 48.859700, "lon": 2.095000, "name": "Tapis Vert haut"},
    {"lat": 48.869800, "lon": 2.074500, "name": "Batterie du Champ de Mars"}
  ]
}
