{
  "candidate_count": 3,
  "distance_objective": {
    "maximum_m": null,
    "priority": "flexible",
    "target_m": 45000.0,
    "tolerance_m": 2000.0
  },
  "end": null,
  "free_poi_spur_physical_m": 200.0,
  "hard_waypoints": [],
  "kind": "auto_tour",
  "name": "Bastille plus 22 imported Marly places",
  "preferences": {
    "direction": "any",
    "drinking_water": "prefer",
    "loop_geometry": "off",
    "nature": "prefer",
    "path_selection": "low_overlap",
    "scenic": "prefer"
  },
  "preferred_discovered_poi_ids": [],
  "requested_stops": [
    {
      "access_search_radius_m": 500.0,
      "approach_override": null,
      "id": "migrated-requested-stop-0",
      "importance": "must_visit",
      "name": "Croix Saint-Michel",
      "osm_reference": null,
      "semantic_coordinate": {
        "lat": 48.8715,
        "lon": 2.043,
        "name": "Croix Saint-Michel"
      },
      "constraint_strength": "approach",
      "maximum_best_effort_distance_m": null
    },
    {
      "access_search_radius_m": 500.0,
      "approach_override": null,
      "id": "migrated-requested-stop-1",
      "importance": "must_visit",
      "name": "Abbaye de Joyenval",
      "osm_reference": null,
      "semantic_coordinate": {
        "lat": 48.887496,
        "lon": 2.034384,
        "name": "Abbaye de Joyenval"
      },
      "constraint_strength": "approach",
      "maximum_best_effort_distance_m": null
    },
    {
      "access_search_radius_m": 500.0,
      "approach_override": null,
      "id": "migrated-requested-stop-2",
      "importance": "must_visit",
      "name": "Entrée du Désert de Retz",
      "osm_reference": null,
      "semantic_coordinate": {
        "lat": 48.89081,
        "lon": 2.02153,
        "name": "Entrée du Désert de Retz"
      },
      "constraint_strength": "approach",
      "maximum_best_effort_distance_m": null
    },
    {
      "access_search_radius_m": 500.0,
      "approach_override": null,
      "id": "migrated-requested-stop-3",
      "importance": "must_visit",
      "name": "Étoile de Montaigu",
      "osm_reference": null,
      "semantic_coordinate": {
        "lat": 48.889861,
        "lon": 2.044635,
        "name": "Étoile de Montaigu"
      },
      "constraint_strength": "approach",
      "maximum_best_effort_distance_m": null
    },
    {
      "access_search_radius_m": 500.0,
      "approach_override": null,
      "id": "migrated-requested-stop-4",
      "importance": "must_visit",
      "name": "Étoile des Chasseurs",
      "osm_reference": null,
      "semantic_coordinate": {
        "lat": 48.8848,
        "lon": 2.0402,
        "name": "Étoile des Chasseurs"
      },
      "constraint_strength": "approach",
      "maximum_best_effort_distance_m": null
    },
    {
      "access_search_radius_m": 500.0,
      "approach_override": null,
      "id": "migrated-requested-stop-5",
      "importance": "must_visit",
      "name": "Étoile du Compas",
      "osm_reference": null,
      "semantic_coordinate": {
        "lat": 48.8562,
        "lon": 2.083,
        "name": "Étoile du Compas"
      },
      "constraint_strength": "approach",
      "maximum_best_effort_distance_m": null
    },
    {
      "access_search_radius_m": 500.0,
      "approach_override": null,
      "id": "migrated-requested-stop-6",
      "importance": "must_visit",
      "name": "Lisière du Trou d'Enfer — rester hors domaine",
      "osm_reference": null,
      "semantic_coordinate": {
        "lat": 48.8512,
        "lon": 2.0915,
        "name": "Lisière du Trou d'Enfer — rester hors domaine"
      },
      "constraint_strength": "approach",
      "maximum_best_effort_distance_m": null
    },
    {
      "access_search_radius_m": 500.0,
      "approach_override": null,
      "id": "migrated-requested-stop-7",
      "importance": "must_visit",
      "name": "Étoile Douteuse",
      "osm_reference": null,
      "semantic_coordinate": {
        "lat": 48.864,
        "lon": 2.074,
        "name": "Étoile Douteuse"
      },
      "constraint_strength": "approach",
      "maximum_best_effort_distance_m": null
    },
    {
      "access_search_radius_m": 500.0,
      "approach_override": null,
      "id": "migrated-requested-stop-8",
      "importance": "must_visit",
      "name": "Batterie de l'Auberderie",
      "osm_reference": null,
      "semantic_coordinate": {
        "lat": 48.861,
        "lon": 2.071,
        "name": "Batterie de l'Auberderie"
      },
      "constraint_strength": "approach",
      "maximum_best_effort_distance_m": null
    },
    {
      "access_search_radius_m": 500.0,
      "approach_override": null,
      "id": "migrated-requested-stop-9",
      "importance": "must_visit",
      "name": "Gare de Marly-le-Roi",
      "osm_reference": null,
      "semantic_coordinate": {
        "lat": 48.871389,
        "lon": 2.096667,
        "name": "Gare de Marly-le-Roi"
      },
      "constraint_strength": "approach",
      "maximum_best_effort_distance_m": null
    },
    {
      "access_search_radius_m": 500.0,
      "approach_override": null,
      "id": "migrated-requested-stop-10",
      "importance": "must_visit",
      "name": "Église Saint-Vigor / Vieux Marly",
      "osm_reference": null,
      "semantic_coordinate": {
        "lat": 48.8667,
        "lon": 2.0954,
        "name": "Église Saint-Vigor / Vieux Marly"
      },
      "constraint_strength": "approach",
      "maximum_best_effort_distance_m": null
    },
    {
      "access_search_radius_m": 500.0,
      "approach_override": null,
      "id": "migrated-requested-stop-11",
      "importance": "must_visit",
      "name": "Abreuvoir de Marly",
      "osm_reference": null,
      "semantic_coordinate": {
        "lat": 48.862484,
        "lon": 2.099204,
        "name": "Abreuvoir de Marly"
      },
      "constraint_strength": "approach",
      "maximum_best_effort_distance_m": null
    },
    {
      "access_search_radius_m": 500.0,
      "approach_override": null,
      "id": "migrated-requested-stop-12",
      "importance": "must_visit",
      "name": "Grille du Cœur-Volant",
      "osm_reference": null,
      "semantic_coordinate": {
        "lat": 48.863976,
        "lon": 2.103777,
        "name": "Grille du Cœur-Volant"
      },
      "constraint_strength": "approach",
      "maximum_best_effort_distance_m": null
    },
    {
      "access_search_radius_m": 500.0,
      "approach_override": null,
      "id": "migrated-requested-stop-13",
      "importance": "must_visit",
      "name": "Machine de Marly",
      "osm_reference": null,
      "semantic_coordinate": {
        "lat": 48.871454,
        "lon": 2.124421,
        "name": "Machine de Marly"
      },
      "constraint_strength": "approach",
      "maximum_best_effort_distance_m": null
    },
    {
      "access_search_radius_m": 500.0,
      "approach_override": null,
      "id": "migrated-requested-stop-14",
      "importance": "must_visit",
      "name": "Tour du Levant",
      "osm_reference": null,
      "semantic_coordinate": {
        "lat": 48.8644,
        "lon": 2.1135,
        "name": "Tour du Levant"
      },
      "constraint_strength": "approach",
      "maximum_best_effort_distance_m": null
    },
    {
      "access_search_radius_m": 500.0,
      "approach_override": null,
      "id": "migrated-requested-stop-15",
      "importance": "must_visit",
      "name": "Aqueduc de Louveciennes — milieu",
      "osm_reference": null,
      "semantic_coordinate": {
        "lat": 48.86156,
        "lon": 2.10833,
        "name": "Aqueduc de Louveciennes — milieu"
      },
      "constraint_strength": "approach",
      "maximum_best_effort_distance_m": null
    },
    {
      "access_search_radius_m": 500.0,
      "approach_override": null,
      "id": "migrated-requested-stop-16",
      "importance": "must_visit",
      "name": "Tour du Jongleur",
      "osm_reference": null,
      "semantic_coordinate": {
        "lat": 48.8587,
        "lon": 2.104,
        "name": "Tour du Jongleur"
      },
      "constraint_strength": "approach",
      "maximum_best_effort_distance_m": null
    },
    {
      "access_search_radius_m": 500.0,
      "approach_override": null,
      "id": "migrated-requested-stop-17",
      "importance": "must_visit",
      "name": "Entrée sud du Domaine",
      "osm_reference": null,
      "semantic_coordinate": {
        "lat": 48.854245,
        "lon": 2.107372,
        "name": "Entrée sud du Domaine"
      },
      "constraint_strength": "approach",
      "maximum_best_effort_distance_m": null
    },
    {
      "access_search_radius_m": 500.0,
      "approach_override": null,
      "id": "migrated-requested-stop-18",
      "importance": "must_visit",
      "name": "Grand Miroir",
      "osm_reference": null,
      "semantic_coordinate": {
        "lat": 48.8588,
        "lon": 2.1017,
        "name": "Grand Miroir"
      },
      "constraint_strength": "approach",
      "maximum_best_effort_distance_m": null
    },
    {
      "access_search_radius_m": 500.0,
      "approach_override": null,
      "id": "migrated-requested-stop-19",
      "importance": "must_visit",
      "name": "Emplacement du château de Marly",
      "osm_reference": null,
      "semantic_coordinate": {
        "lat": 48.862849,
        "lon": 2.099448,
        "name": "Emplacement du château de Marly"
      },
      "constraint_strength": "approach",
      "maximum_best_effort_distance_m": null
    },
    {
      "access_search_radius_m": 500.0,
      "approach_override": null,
      "id": "migrated-requested-stop-20",
      "importance": "must_visit",
      "name": "Tapis Vert haut",
      "osm_reference": null,
      "semantic_coordinate": {
        "lat": 48.8597,
        "lon": 2.095,
        "name": "Tapis Vert haut"
      },
      "constraint_strength": "approach",
      "maximum_best_effort_distance_m": null
    },
    {
      "access_search_radius_m": 500.0,
      "approach_override": null,
      "id": "migrated-requested-stop-21",
      "importance": "must_visit",
      "name": "Batterie du Champ de Mars",
      "osm_reference": null,
      "semantic_coordinate": {
        "lat": 48.8698,
        "lon": 2.0745,
        "name": "Batterie du Champ de Mars"
      },
      "constraint_strength": "approach",
      "maximum_best_effort_distance_m": null
    }
  ],
  "routing_profile": "hike",
  "schema_version": 1,
  "seed": 0,
  "start": {
    "lat": 48.853,
    "lon": 2.369,
    "name": "Place de la Bastille"
  },
  "topology": "loop"
}
